{
  "facilities_data": [
    {
      "name": "Gigafactory Nevada",
      "lat": 39.5362,
      "lon": -119.4432,
      "opened": "2016-07-26 00:00:00",
      "type": "Producción de Baterías",
      "impact_score": 9,
      "capacity": "35 GWh/año",
      "employees": 7000,
      "investment": "$5 mil millones",
      "category": "Gigafactories"
    },
    {
      "name": "Gigafactory Shanghai",
      "lat": 31.1976,
      "lon": 121.2052,
      "opened": "2019-12-30 00:00:00",
      "type": "Producción de Vehículos",
      "impact_score": 10,
      "capacity": "450,000 vehículos/año",
      "employees": 19000,
      "investment": "$7 mil millones",
      "category": "Gigafactories"
    },
    {
      "name": "Gigafactory Berlin",
      "lat": 52.3979,
      "lon": 13.7568,
      "opened": "2022-03-22 00:00:00",
      "type": "Producción de Vehículos",
      "impact_score": 8,
      "capacity": "500,000 vehículos/año",
      "employees": 12000,
      "investment": "$5.5 mil millones",
      "category": "Gigafactories"
    },
    {
      "name": "Gigafactory Texas",
      "lat": 30.233,
      "lon": -97.6103,
      "opened": "2022-04-07 00:00:00",
      "type": "Producción de Vehículos",
      "impact_score": 9,
      "capacity": "375,000 vehículos/año",
      "employees": 15000,
      "investment": "$7 mil millones",
      "category": "Gigafactories"
    },
    {
      "name": "Gigafactory New York",
      "lat": 43.0481,
      "lon": -78.1781,
      "opened": "2017-08-17 00:00:00",
      "type": "Producción Solar",
      "impact_score": 6,
      "capacity": "1 GW paneles/año",
      "employees": 1500,
      "investment": "$1.5 mil millones",
      "category": "Gigafactories"
    },
    {
      "name": "Tesla Factory Fremont",
      "lat": 37.493,
      "lon": -121.9374,
      "opened": "2010-10-27 00:00:00",
      "type": "Producción de Vehículos",
      "impact_score": 10,
      "capacity": "600,000 vehículos/año",
      "employees": 20000,
      "investment": "$2 mil millones",
      "category": "Instalaciones_Principales"
    },
    {
      "name": "Tesla Design Studio Hawthorne",
      "lat": 33.9192,
      "lon": -118.3528,
      "opened": "2016-01-01 00:00:00",
      "type": "Diseño e Ingeniería",
      "impact_score": 7,
      "capacity": "Centro de Diseño",
      "employees": 3000,
      "investment": "$500 millones",
      "category": "Instalaciones_Principales"
    },
    {
      "name": "Tesla Headquarters Austin",
      "lat": 30.2672,
      "lon": -97.7431,
      "opened": "2021-12-01 00:00:00",
      "type": "Sede Corporativa",
      "impact_score": 8,
      "capacity": "Oficinas Corporativas",
      "employees": 5000,
      "investment": "$1.1 mil millones",
      "category": "Instalaciones_Principales"
    },
    {
      "name": "Mercado California",
      "lat": 37.7749,
      "lon": -122.4194,
      "opened": "2008-02-01 00:00:00",
      "type": "Mercado Primario",
      "impact_score": 10,
      "capacity": "1.2M vehículos registrados",
      "employees": 50000,
      "investment": "$15 mil millones",
      "category": "Mercados_Clave"
    },
    {
      "name": "Mercado Noruega",
      "lat": 59.9139,
      "lon": 10.7522,
      "opened": "2013-08-01 00:00:00",
      "type": "Entrada Europea",
      "impact_score": 8,
      "capacity": "200K vehículos registrados",
      "employees": 2000,
      "investment": "$2 mil millones",
      "category": "Mercados_Clave"
    },
    {
      "name": "Mercado China",
      "lat": 39.9042,
      "lon": 116.4074,
      "opened": "2014-04-01 00:00:00",
      "type": "Mercado Asiático",
      "impact_score": 9,
      "capacity": "800K vehículos registrados",
      "employees": 25000,
      "investment": "$8 mil millones",
      "category": "Mercados_Clave"
    },
    {
      "name": "Mercado Reino Unido",
      "lat": 51.5074,
      "lon": -0.1278,
      "opened": "2014-06-01 00:00:00",
      "type": "Mercado Europeo",
      "impact_score": 7,
      "capacity": "150K vehículos registrados",
      "employees": 3000,
      "investment": "$3 mil millones",
      "category": "Mercados_Clave"
    }
  ],
  "regional_data": [
    {
      "region": "América del Norte",
      "lat": 45.0,
      "lon": -100.0,
      "sales_2020": 245000,
      "sales_2021": 352000,
      "sales_2022": 425000,
      "sales_2023": 580000,
      "market_share": 0.18,
      "growth_rate": 0.28,
      "superchargers": 1800,
      "population": 579000000,
      "gdp_per_capita": 65000,
      "ev_incentives": "Si",
      "main_competitors": "Ford, GM, Rivian",
      "total_sales": 1602000,
      "recent_growth": 0.36470588235294116,
      "revenue_estimate": 72090000000,
      "penetration_rate": 2.766839378238342
    },
    {
      "region": "Europa",
      "lat": 54.0,
      "lon": 15.0,
      "sales_2020": 98000,
      "sales_2021": 186000,
      "sales_2022": 254000,
      "sales_2023": 380000,
      "market_share": 0.12,
      "growth_rate": 0.42,
      "superchargers": 1200,
      "population": 746000000,
      "gdp_per_capita": 47000,
      "ev_incentives": "Si",
      "main_competitors": "VW, BMW, Mercedes",
      "total_sales": 918000,
      "recent_growth": 0.49606299212598426,
      "revenue_estimate": 41310000000,
      "penetration_rate": 1.230563002680965
    },
    {
      "region": "China",
      "lat": 35.0,
      "lon": 105.0,
      "sales_2020": 140000,
      "sales_2021": 320000,
      "sales_2022": 440000,
      "sales_2023": 590000,
      "market_share": 0.09,
      "growth_rate": 0.38,
      "superchargers": 800,
      "population": 1400000000,
      "gdp_per_capita": 12500,
      "ev_incentives": "Si",
      "main_competitors": "BYD, NIO, XPeng",
      "total_sales": 1490000,
      "recent_growth": 0.3409090909090909,
      "revenue_estimate": 67050000000,
      "penetration_rate": 1.0642857142857143
    },
    {
      "region": "Asia Pacífico",
      "lat": 15.0,
      "lon": 120.0,
      "sales_2020": 25000,
      "sales_2021": 48000,
      "sales_2022": 78000,
      "sales_2023": 125000,
      "market_share": 0.05,
      "growth_rate": 0.55,
      "superchargers": 200,
      "population": 4600000000,
      "gdp_per_capita": 8500,
      "ev_incentives": "Parcial",
      "main_competitors": "Toyota, Hyundai, Nissan",
      "total_sales": 276000,
      "recent_growth": 0.6025641025641025,
      "revenue_estimate": 12420000000,
      "penetration_rate": 0.06
    },
    {
      "region": "Otros Mercados",
      "lat": -25.0,
      "lon": 135.0,
      "sales_2020": 12000,
      "sales_2021": 24000,
      "sales_2022": 38000,
      "sales_2023": 65000,
      "market_share": 0.03,
      "growth_rate": 0.65,
      "superchargers": 150,
      "population": 1200000000,
      "gdp_per_capita": 15000,
      "ev_incentives": "Limitado",
      "main_competitors": "Varios locales",
      "total_sales": 139000,
      "recent_growth": 0.7105263157894737,
      "revenue_estimate": 6255000000,
      "penetration_rate": 0.11583333333333333
    }
  ],
  "supercharger_data": [
    {
      "name": "Los Angeles Supercharger Hub",
      "lat": 34.0522,
      "lon": -118.2437,
      "opened": "2012-09-01 00:00:00",
      "stalls": 20,
      "region": "Costa Oeste",
      "power_kw": 250,
      "year": 2012,
      "total_power": 5000
    },
    {
      "name": "San Francisco Bay Area Hub",
      "lat": 37.7749,
      "lon": -122.4194,
      "opened": "2012-10-01 00:00:00",
      "stalls": 16,
      "region": "Costa Oeste",
      "power_kw": 150,
      "year": 2012,
      "total_power": 2400
    },
    {
      "name": "New York Metro Hub",
      "lat": 40.7128,
      "lon": -74.006,
      "opened": "2013-06-01 00:00:00",
      "stalls": 12,
      "region": "Costa Este",
      "power_kw": 150,
      "year": 2013,
      "total_power": 1800
    },
    {
      "name": "Chicago Hub",
      "lat": 41.8781,
      "lon": -87.6298,
      "opened": "2013-08-01 00:00:00",
      "stalls": 14,
      "region": "Medio Oeste",
      "power_kw": 150,
      "year": 2013,
      "total_power": 2100
    },
    {
      "name": "Miami Hub",
      "lat": 25.7617,
      "lon": -80.1918,
      "opened": "2014-03-01 00:00:00",
      "stalls": 10,
      "region": "Sureste",
      "power_kw": 120,
      "year": 2014,
      "total_power": 1200
    },
    {
      "name": "Dallas Hub",
      "lat": 32.7767,
      "lon": -96.797,
      "opened": "2014-07-01 00:00:00",
      "stalls": 18,
      "region": "Sur",
      "power_kw": 150,
      "year": 2014,
      "total_power": 2700
    },
    {
      "name": "Seattle Hub",
      "lat": 47.6062,
      "lon": -122.3321,
      "opened": "2013-12-01 00:00:00",
      "stalls": 8,
      "region": "Pacífico Noroeste",
      "power_kw": 120,
      "year": 2013,
      "total_power": 960
    },
    {
      "name": "Oslo Supercharger",
      "lat": 59.9139,
      "lon": 10.7522,
      "opened": "2013-09-01 00:00:00",
      "stalls": 6,
      "region": "Europa Norte",
      "power_kw": 120,
      "year": 2013,
      "total_power": 720
    },
    {
      "name": "Amsterdam Hub",
      "lat": 52.3676,
      "lon": 4.9041,
      "opened": "2014-02-01 00:00:00",
      "stalls": 8,
      "region": "Europa Oeste",
      "power_kw": 150,
      "year": 2014,
      "total_power": 1200
    },
    {
      "name": "Berlin Hub",
      "lat": 52.52,
      "lon": 13.405,
      "opened": "2014-04-01 00:00:00",
      "stalls": 10,
      "region": "Europa Central",
      "power_kw": 150,
      "year": 2014,
      "total_power": 1500
    },
    {
      "name": "London Hub",
      "lat": 51.5074,
      "lon": -0.1278,
      "opened": "2014-06-01 00:00:00",
      "stalls": 12,
      "region": "Reino Unido",
      "power_kw": 150,
      "year": 2014,
      "total_power": 1800
    },
    {
      "name": "Paris Hub",
      "lat": 48.8566,
      "lon": 2.3522,
      "opened": "2014-08-01 00:00:00",
      "stalls": 14,
      "region": "Europa Oeste",
      "power_kw": 150,
      "year": 2014,
      "total_power": 2100
    },
    {
      "name": "Beijing Supercharger",
      "lat": 39.9042,
      "lon": 116.4074,
      "opened": "2014-07-01 00:00:00",
      "stalls": 10,
      "region": "China",
      "power_kw": 120,
      "year": 2014,
      "total_power": 1200
    },
    {
      "name": "Shanghai Hub",
      "lat": 31.2304,
      "lon": 121.4737,
      "opened": "2014-08-01 00:00:00",
      "stalls": 16,
      "region": "China",
      "power_kw": 180,
      "year": 2014,
      "total_power": 2880
    },
    {
      "name": "Shenzhen Hub",
      "lat": 22.3193,
      "lon": 114.1694,
      "opened": "2014-12-01 00:00:00",
      "stalls": 12,
      "region": "China",
      "power_kw": 150,
      "year": 2014,
      "total_power": 1800
    },
    {
      "name": "Tokyo Hub",
      "lat": 35.6762,
      "lon": 139.6503,
      "opened": "2014-09-01 00:00:00",
      "stalls": 8,
      "region": "Japón",
      "power_kw": 150,
      "year": 2014,
      "total_power": 1200
    },
    {
      "name": "Seoul Hub",
      "lat": 37.5665,
      "lon": 126.978,
      "opened": "2017-02-01 00:00:00",
      "stalls": 6,
      "region": "Corea del Sur",
      "power_kw": 120,
      "year": 2017,
      "total_power": 720
    },
    {
      "name": "Corredor I-5 (California)",
      "lat": 36.0,
      "lon": -120.0,
      "opened": "2013-01-01 00:00:00",
      "stalls": 8,
      "region": "Red de Carreteras",
      "power_kw": 120,
      "year": 2013,
      "total_power": 960
    },
    {
      "name": "Corredor Costa Este I-95",
      "lat": 39.0,
      "lon": -76.0,
      "opened": "2013-05-01 00:00:00",
      "stalls": 6,
      "region": "Red de Carreteras",
      "power_kw": 120,
      "year": 2013,
      "total_power": 720
    },
    {
      "name": "Red Trans-Europea",
      "lat": 50.0,
      "lon": 8.0,
      "opened": "2014-01-01 00:00:00",
      "stalls": 4,
      "region": "Red de Carreteras",
      "power_kw": 100,
      "year": 2014,
      "total_power": 400
    },
    {
      "name": "Mumbai Hub",
      "lat": 19.076,
      "lon": 72.8777,
      "opened": "2021-01-01 00:00:00",
      "stalls": 4,
      "region": "India",
      "power_kw": 120,
      "year": 2021,
      "total_power": 480
    },
    {
      "name": "Sydney Hub",
      "lat": -33.8688,
      "lon": 151.2093,
      "opened": "2020-08-01 00:00:00",
      "stalls": 8,
      "region": "Australia",
      "power_kw": 150,
      "year": 2020,
      "total_power": 1200
    },
    {
      "name": "Melbourne Hub",
      "lat": -37.8136,
      "lon": 144.9631,
      "opened": "2020-12-01 00:00:00",
      "stalls": 6,
      "region": "Australia",
      "power_kw": 150,
      "year": 2020,
      "total_power": 900
    }
  ],
  "analysis_metadata": {
    "creation_date": "2025-08-13T08:42:15.042997",
    "data_source": "yfinance",
    "folium_available": true,
    "total_facilities": 12,
    "total_regions": 5,
    "total_superchargers": 23
  }
}